[
{
    "model": "resources.airport",
    "pk": 1,
    "fields": {
        "code": "KBL",
        "name": "Kabul",
        "parent_code": "",
        "country": "AF",
        "city": "Kabul",
        "longitude": "69.211521",
        "latitude": "34.560692",
        "train_station": false,
        "bus_station": false,
        "active": true,
        "timezone": "Asia/Kabul"
    }
},
{
    "model": "resources.airport",
    "pk": 2,
    "fields": {
        "code": "TIA",
        "name": "Tirana Int. Apt",
        "parent_code": "",
        "country": "AL",
        "city": "Tirana",
        "longitude": "19.71328",
        "latitude": "41.419133",
        "train_station": false,
        "bus_station": false,
        "active": true,
        "timezone": "Europe/Tirane"
    }
},
{
    "model": "resources.airport",
    "pk": 3,
    "fields": {
        "code": "AZR",
        "name": "",
        "parent_code": "",
        "country": "DZ",
        "city": "Adrar",
        "longitude": "-0.283333",
        "latitude": "27.883333",
        "train_station": false,
        "bus_station": false,
        "active": true,
        "timezone": "Africa/Algiers"
    }
},
{
    "model": "resources.airport",
    "pk": 4,
    "fields": {
        "code": "ALG",
        "name": "Houari Boumediene Airport",
        "parent_code": "",
        "country": "DZ",
        "city": "Algiers",
        "longitude": "3.21167",
        "latitude": "36.70058",
        "train_station": false,
        "bus_station": false,
        "active": true,
        "timezone": "Africa/Algiers"
    }
},
{
    "model": "resources.airport",
    "pk": 5,
    "fields": {
        "code": "AAE",
        "name": "",
        "parent_code": "",
        "country": "DZ",
        "city": "Annaba",
        "longitude": "7.811857",
        "latitude": "36.821392",
        "train_station": false,
        "bus_station": false,
        "active": true,
        "timezone": "Africa/Algiers"
    }
},
{
    "model": "resources.airport",
    "pk": 6,
    "fields": {
        "code": "BLJ",
        "name": "",
        "parent_code": "",
        "country": "DZ",
        "city": "Batna",
        "longitude": "6.183333",
        "latitude": "35.566667",
        "train_station": false,
        "bus_station": false,
        "active": true,
        "timezone": "Africa/Algiers"
    }
},
{
    "model": "resources.airport",
    "pk": 7,
    "fields": {
        "code": "CBH",
        "name": "",
        "parent_code": "",
        "country": "DZ",
        "city": "Bechar",
        "longitude": "-2.259722",
        "latitude": "31.647778",
        "train_station": false,
        "bus_station": false,
        "active": true,
        "timezone": "Africa/Algiers"
    }
},
{
    "model": "resources.airport",
    "pk": 8,
    "fields": {
        "code": "BJA",
        "name": "",
        "parent_code": "",
        "country": "DZ",
        "city": "Bejaia",
        "longitude": "5.083333",
        "latitude": "36.75",
        "train_station": false,
        "bus_station": false,
        "active": true,
        "timezone": "Africa/Algiers"
    }
},
{
    "model": "resources.airport",
    "pk": 9,
    "fields": {
        "code": "BSK",
        "name": "",
        "parent_code": "",
        "country": "DZ",
        "city": "Biskra",
        "longitude": "5.738056",
        "latitude": "34.793333",
        "train_station": false,
        "bus_station": false,
        "active": true,
        "timezone": "Africa/Algiers"
    }
},
{
    "model": "resources.airport",
    "pk": 10,
    "fields": {
        "code": "CZL",
        "name": "",
        "parent_code": "",
        "country": "DZ",
        "city": "Constantine",
        "longitude": "6.618425",
        "latitude": "36.286477",
        "train_station": false,
        "bus_station": false,
        "active": true,
        "timezone": "Africa/Algiers"
    }
},
{
    "model": "resources.airport",
    "pk": 11,
    "fields": {
        "code": "DJG",
        "name": "",
        "parent_code": "",
        "country": "DZ",
        "city": "Djanet",
        "longitude": "9.488889",
        "latitude": "24.465278",
        "train_station": false,
        "bus_station": false,
        "active": true,
        "timezone": "Africa/Algiers"
    }
},
{
    "model": "resources.airport",
    "pk": 12,
    "fields": {
        "code": "ELU",
        "name": "",
        "parent_code": "",
        "country": "DZ",
        "city": "El Oued",
        "longitude": "6.783333",
        "latitude": "33.516667",
        "train_station": false,
        "bus_station": false,
        "active": true,
        "timezone": "Africa/Algiers"
    }
},
{
    "model": "resources.airport",
    "pk": 13,
    "fields": {
        "code": "GHA",
        "name": "",
        "parent_code": "",
        "country": "DZ",
        "city": "Ghardaia",
        "longitude": "3.800556",
        "latitude": "32.382222",
        "train_station": false,
        "bus_station": false,
        "active": true,
        "timezone": "Africa/Algiers"
    }
},
{
    "model": "resources.airport",
    "pk": 14,
    "fields": {
        "code": "HME",
        "name": "",
        "parent_code": "",
        "country": "DZ",
        "city": "Hassi Messaoud",
        "longitude": "6.145436",
        "latitude": "31.675303",
        "train_station": false,
        "bus_station": false,
        "active": true,
        "timezone": "Africa/Algiers"
    }
},
{
    "model": "resources.airport",
    "pk": 15,
    "fields": {
        "code": "IAM",
        "name": "",
        "parent_code": "",
        "country": "DZ",
        "city": "In Amenas",
        "longitude": "9.638056",
        "latitude": "28.051111",
        "train_station": false,
        "bus_station": false,
        "active": true,
        "timezone": "Africa/Algiers"
    }
},
{
    "model": "resources.airport",
    "pk": 16,
    "fields": {
        "code": "GJL",
        "name": "",
        "parent_code": "",
        "country": "DZ",
        "city": "Jijel",
        "longitude": "5.883333",
        "latitude": "36.8",
        "train_station": false,
        "bus_station": false,
        "active": true,
        "timezone": "Africa/Algiers"
    }
},
{
    "model": "resources.airport",
    "pk": 17,
    "fields": {
        "code": "ORN",
        "name": "Es Senia Airport",
        "parent_code": "",
        "country": "DZ",
        "city": "Oran",
        "longitude": "-0.606108",
        "latitude": "35.620019",
        "train_station": false,
        "bus_station": false,
        "active": true,
        "timezone": "Africa/Algiers"
    }
},
{
    "model": "resources.airport",
    "pk": 18,
    "fields": {
        "code": "OGX",
        "name": "",
        "parent_code": "",
        "country": "DZ",
        "city": "Ouargla",
        "longitude": "5.4",
        "latitude": "31.916667",
        "train_station": false,
        "bus_station": false,
        "active": true,
        "timezone": "Africa/Algiers"
    }
},
{
    "model": "resources.airport",
    "pk": 19,
    "fields": {
        "code": "TMR",
        "name": "",
        "parent_code": "",
        "country": "DZ",
        "city": "Tamanrasset",
        "longitude": "5.459167",
        "latitude": "22.814722",
        "train_station": false,
        "bus_station": false,
        "active": true,
        "timezone": "Africa/Algiers"
    }
},
{
    "model": "resources.airport",
    "pk": 20,
    "fields": {
        "code": "TEE",
        "name": "",
        "parent_code": "",
        "country": "DZ",
        "city": "Tbessa",
        "longitude": "8.15",
        "latitude": "35.466667",
        "train_station": false,
        "bus_station": false,
        "active": true,
        "timezone": "Africa/Algiers"
    }
},
{
    "model": "resources.airport",
    "pk": 21,
    "fields": {
        "code": "TID",
        "name": "",
        "parent_code": "",
        "country": "DZ",
        "city": "Tiaret",
        "longitude": "1.35",
        "latitude": "35.466667",
        "train_station": false,
        "bus_station": false,
        "active": true,
        "timezone": "Africa/Algiers"
    }
},
{
    "model": "resources.airport",
    "pk": 22,
    "fields": {
        "code": "TMX",
        "name": "",
        "parent_code": "",
        "country": "DZ",
        "city": "Timimoun",
        "longitude": "0.283333",
        "latitude": "29.233333",
        "train_station": false,
        "bus_station": false,
        "active": true,
        "timezone": "Africa/Algiers"
    }
},
{
    "model": "resources.airport",
    "pk": 23,
    "fields": {
        "code": "TIN",
        "name": "",
        "parent_code": "",
        "country": "DZ",
        "city": "Tindouf",
        "longitude": "-8.166667",
        "latitude": "27.716667",
        "train_station": false,
        "bus_station": false,
        "active": true,
        "timezone": "Africa/Algiers"
    }
},
{
    "model": "resources.airport",
    "pk": 24,
    "fields": {
        "code": "TLM",
        "name": "",
        "parent_code": "",
        "country": "DZ",
        "city": "Tlemcen",
        "longitude": "-1.45",
        "latitude": "35.016667",
        "train_station": false,
        "bus_station": false,
        "active": true,
        "timezone": "Africa/Algiers"
    }
},
{
    "model": "resources.airport",
    "pk": 25,
    "fields": {
        "code": "PPG",
        "name": "",
        "parent_code": "",
        "country": "AS",
        "city": "Pago Pago",
        "longitude": "-170.696389",
        "latitude": "-14.326389",
        "train_station": false,
        "bus_station": false,
        "active": true,
        "timezone": "Pacific/Pago_Pago"
    }
},
{
    "model": "resources.airport",
    "pk": 26,
    "fields": {
        "code": "LAD",
        "name": "Quatro de Fevereiro Apt",
        "parent_code": "",
        "country": "AO",
        "city": "Luanda",
        "longitude": "13.234862",
        "latitude": "-8.847951",
        "train_station": false,
        "bus_station": false,
        "active": true,
        "timezone": "Africa/Luanda"
    }
},
{
    "model": "resources.airport",
    "pk": 27,
    "fields": {
        "code": "AXA",
        "name": "",
        "parent_code": "",
        "country": "AI",
        "city": "Anguilla",
        "longitude": "-63.066667",
        "latitude": "18.216667",
        "train_station": false,
        "bus_station": false,
        "active": true,
        "timezone": "America/Anguilla"
    }
},
{
    "model": "resources.airport",
    "pk": 28,
    "fields": {
        "code": "ANU",
        "name": "V. C. Bird International Airport",
        "parent_code": "",
        "country": "AG",
        "city": "Antigua",
        "longitude": "-61.763889",
        "latitude": "17.108333",
        "train_station": false,
        "bus_station": false,
        "active": true,
        "timezone": "America/Antigua"
    }
},
{
    "model": "resources.airport",
    "pk": 29,
    "fields": {
        "code": "ARR",
        "name": "",
        "parent_code": "",
        "country": "AR",
        "city": "Alto Rio Senguerr",
        "longitude": "-70.833333",
        "latitude": "-45.033333",
        "train_station": false,
        "bus_station": false,
        "active": true,
        "timezone": "America/Argentina/Buenos_Aires"
    }
},
{
    "model": "resources.airport",
    "pk": 30,
    "fields": {
        "code": "BHI",
        "name": "",
        "parent_code": "",
        "country": "AR",
        "city": "Bahia Blanca",
        "longitude": "-62.150556",
        "latitude": "-38.730556",
        "train_station": false,
        "bus_station": false,
        "active": true,
        "timezone": "America/Argentina/Buenos_Aires"
    }
},
{
    "model": "resources.airport",
    "pk": 31,
    "fields": {
        "code": "AEP",
        "name": "Jorge Newbery",
        "parent_code": "BUE",
        "country": "AR",
        "city": "Buenos Aires",
        "longitude": "-58.41667",
        "latitude": "-34.556221",
        "train_station": false,
        "bus_station": false,
        "active": true,
        "timezone": "America/Argentina/Buenos_Aires"
    }
},
{
    "model": "resources.airport",
    "pk": 32,
    "fields": {
        "code": "EZE",
        "name": "Ministro Pistarini",
        "parent_code": "BUE",
        "country": "AR",
        "city": "Buenos Aires",
        "longitude": "-58.539834",
        "latitude": "-34.81273",
        "train_station": false,
        "bus_station": false,
        "active": true,
        "timezone": "America/Argentina/Buenos_Aires"
    }
},
{
    "model": "resources.airport",
    "pk": 33,
    "fields": {
        "code": "CRD",
        "name": "",
        "parent_code": "",
        "country": "AR",
        "city": "Camodoro",
        "longitude": "-67.462778",
        "latitude": "-45.787222",
        "train_station": false,
        "bus_station": false,
        "active": true,
        "timezone": "America/Argentina/Buenos_Aires"
    }
},
{
    "model": "resources.airport",
    "pk": 34,
    "fields": {
        "code": "CTC",
        "name": "",
        "parent_code": "",
        "country": "AR",
        "city": "Catamarca",
        "longitude": "-65.779722",
        "latitude": "-28.448333",
        "train_station": false,
        "bus_station": false,
        "active": true,
        "timezone": "America/Argentina/Buenos_Aires"
    }
},
{
    "model": "resources.airport",
    "pk": 35,
    "fields": {
        "code": "COC",
        "name": "",
        "parent_code": "",
        "country": "AR",
        "city": "Concordia",
        "longitude": "-57.996389",
        "latitude": "-31.297222",
        "train_station": false,
        "bus_station": false,
        "active": true,
        "timezone": "America/Argentina/Buenos_Aires"
    }
},
{
    "model": "resources.airport",
    "pk": 36,
    "fields": {
        "code": "COR",
        "name": "",
        "parent_code": "",
        "country": "AR",
        "city": "Cordoba",
        "longitude": "-64.213768",
        "latitude": "-31.315479",
        "train_station": false,
        "bus_station": false,
        "active": true,
        "timezone": "America/Argentina/Buenos_Aires"
    }
},
{
    "model": "resources.airport",
    "pk": 37,
    "fields": {
        "code": "CNQ",
        "name": "",
        "parent_code": "",
        "country": "AR",
        "city": "Corrientes",
        "longitude": "-58.762222",
        "latitude": "-27.449722",
        "train_station": false,
        "bus_station": false,
        "active": true,
        "timezone": "America/Argentina/Buenos_Aires"
    }
},
{
    "model": "resources.airport",
    "pk": 38,
    "fields": {
        "code": "EHL",
        "name": "",
        "parent_code": "",
        "country": "AR",
        "city": "El Bolson",
        "longitude": "-71.75",
        "latitude": "-42.0",
        "train_station": false,
        "bus_station": false,
        "active": true,
        "timezone": "America/Argentina/Buenos_Aires"
    }
},
{
    "model": "resources.airport",
    "pk": 39,
    "fields": {
        "code": "FTE",
        "name": "El Calafate Int. Apt",
        "parent_code": "",
        "country": "AR",
        "city": "El Calafate",
        "longitude": "-72.053695",
        "latitude": "-50.284227",
        "train_station": false,
        "bus_station": false,
        "active": true,
        "timezone": "America/Argentina/Buenos_Aires"
    }
},
{
    "model": "resources.airport",
    "pk": 40,
    "fields": {
        "code": "EMX",
        "name": "",
        "parent_code": "",
        "country": "AR",
        "city": "El Maiten",
        "longitude": "-71.15",
        "latitude": "-42.033333",
        "train_station": false,
        "bus_station": false,
        "active": true,
        "timezone": "America/Argentina/Buenos_Aires"
    }
},
{
    "model": "resources.airport",
    "pk": 41,
    "fields": {
        "code": "EQS",
        "name": "",
        "parent_code": "",
        "country": "AR",
        "city": "Esquel",
        "longitude": "-71.1425",
        "latitude": "-42.909722",
        "train_station": false,
        "bus_station": false,
        "active": true,
        "timezone": "America/Argentina/Buenos_Aires"
    }
},
{
    "model": "resources.airport",
    "pk": 42,
    "fields": {
        "code": "FMA",
        "name": "",
        "parent_code": "",
        "country": "AR",
        "city": "Formosa",
        "longitude": "-58.235",
        "latitude": "-26.212778",
        "train_station": false,
        "bus_station": false,
        "active": true,
        "timezone": "America/Argentina/Buenos_Aires"
    }
},
{
    "model": "resources.airport",
    "pk": 43,
    "fields": {
        "code": "GGS",
        "name": "",
        "parent_code": "",
        "country": "AR",
        "city": "Gobernador Gregores",
        "longitude": "-70.25",
        "latitude": "-48.766667",
        "train_station": false,
        "bus_station": false,
        "active": true,
        "timezone": "America/Argentina/Buenos_Aires"
    }
},
{
    "model": "resources.airport",
    "pk": 44,
    "fields": {
        "code": "OYA",
        "name": "",
        "parent_code": "",
        "country": "AR",
        "city": "Goya",
        "longitude": "-59.216667",
        "latitude": "-29.103333",
        "train_station": false,
        "bus_station": false,
        "active": true,
        "timezone": "America/Argentina/Buenos_Aires"
    }
},
{
    "model": "resources.airport",
    "pk": 45,
    "fields": {
        "code": "IGR",
        "name": "Cataratas del Iguazu Int. Apt",
        "parent_code": "",
        "country": "AR",
        "city": "Iguazu",
        "longitude": "-54.476347",
        "latitude": "-25.731505",
        "train_station": false,
        "bus_station": false,
        "active": true,
        "timezone": "America/Argentina/Buenos_Aires"
    }
},
{
    "model": "resources.airport",
    "pk": 46,
    "fields": {
        "code": "JSM",
        "name": "",
        "parent_code": "",
        "country": "AR",
        "city": "Jose De San Martin",
        "longitude": "-70.433333",
        "latitude": "-44.066667",
        "train_station": false,
        "bus_station": false,
        "active": true,
        "timezone": "America/Argentina/Buenos_Aires"
    }
},
{
    "model": "resources.airport",
    "pk": 47,
    "fields": {
        "code": "JUJ",
        "name": "",
        "parent_code": "",
        "country": "AR",
        "city": "Jujuy",
        "longitude": "-65.083333",
        "latitude": "-24.4",
        "train_station": false,
        "bus_station": false,
        "active": true,
        "timezone": "America/Argentina/Buenos_Aires"
    }
},
{
    "model": "resources.airport",
    "pk": 48,
    "fields": {
        "code": "IRJ",
        "name": "",
        "parent_code": "",
        "country": "AR",
        "city": "La Rioja",
        "longitude": "-66.783333",
        "latitude": "-29.383333",
        "train_station": false,
        "bus_station": false,
        "active": true,
        "timezone": "America/Argentina/Buenos_Aires"
    }
},
{
    "model": "resources.airport",
    "pk": 49,
    "fields": {
        "code": "ING",
        "name": "",
        "parent_code": "",
        "country": "AR",
        "city": "Lago Argentino",
        "longitude": "-72.666667",
        "latitude": "-50.583333",
        "train_station": false,
        "bus_station": false,
        "active": true,
        "timezone": "America/Argentina/Buenos_Aires"
    }
},
{
    "model": "resources.airport",
    "pk": 50,
    "fields": {
        "code": "LGS",
        "name": "",
        "parent_code": "",
        "country": "AR",
        "city": "Malargue",
        "longitude": "-69.574566",
        "latitude": "-35.49324",
        "train_station": false,
        "bus_station": false,
        "active": true,
        "timezone": "America/Argentina/Buenos_Aires"
    }
},
{
    "model": "resources.airport",
    "pk": 51,
    "fields": {
        "code": "MDQ",
        "name": "",
        "parent_code": "",
        "country": "AR",
        "city": "Mar Del Plata",
        "longitude": "-57.572222",
        "latitude": "-37.934722",
        "train_station": false,
        "bus_station": false,
        "active": true,
        "timezone": "America/Argentina/Buenos_Aires"
    }
},
{
    "model": "resources.airport",
    "pk": 52,
    "fields": {
        "code": "MDZ",
        "name": "",
        "parent_code": "",
        "country": "AR",
        "city": "Mendoza",
        "longitude": "-68.798909",
        "latitude": "-32.827888",
        "train_station": false,
        "bus_station": false,
        "active": true,
        "timezone": "America/Argentina/Buenos_Aires"
    }
},
{
    "model": "resources.airport",
    "pk": 53,
    "fields": {
        "code": "NQN",
        "name": "",
        "parent_code": "",
        "country": "AR",
        "city": "Neuquen",
        "longitude": "-68.152222",
        "latitude": "-38.95",
        "train_station": false,
        "bus_station": false,
        "active": true,
        "timezone": "America/Argentina/Buenos_Aires"
    }
},
{
    "model": "resources.airport",
    "pk": 54,
    "fields": {
        "code": "PRA",
        "name": "",
        "parent_code": "",
        "country": "AR",
        "city": "Parana",
        "longitude": "-60.48",
        "latitude": "-31.795",
        "train_station": false,
        "bus_station": false,
        "active": true,
        "timezone": "America/Argentina/Buenos_Aires"
    }
},
{
    "model": "resources.airport",
    "pk": 55,
    "fields": {
        "code": "AOL",
        "name": "",
        "parent_code": "",
        "country": "AR",
        "city": "Paso de Los Libres",
        "longitude": "-57.15",
        "latitude": "-29.683333",
        "train_station": false,
        "bus_station": false,
        "active": true,
        "timezone": "America/Argentina/Buenos_Aires"
    }
},
{
    "model": "resources.airport",
    "pk": 56,
    "fields": {
        "code": "PMQ",
        "name": "",
        "parent_code": "",
        "country": "AR",
        "city": "Perito Moreno",
        "longitude": "-70.983611",
        "latitude": "-46.536389",
        "train_station": false,
        "bus_station": false,
        "active": true,
        "timezone": "America/Argentina/Buenos_Aires"
    }
},
{
    "model": "resources.airport",
    "pk": 57,
    "fields": {
        "code": "PSS",
        "name": "",
        "parent_code": "",
        "country": "AR",
        "city": "Posadas",
        "longitude": "-55.9675",
        "latitude": "-27.383889",
        "train_station": false,
        "bus_station": false,
        "active": true,
        "timezone": "America/Argentina/Buenos_Aires"
    }
},
{
    "model": "resources.airport",
    "pk": 58,
    "fields": {
        "code": "PRQ",
        "name": "",
        "parent_code": "",
        "country": "AR",
        "city": "Pres. Roque Saenz Pena",
        "longitude": "-60.666667",
        "latitude": "-26.833333",
        "train_station": false,
        "bus_station": false,
        "active": true,
        "timezone": "America/Argentina/Buenos_Aires"
    }
},
{
    "model": "resources.airport",
    "pk": 59,
    "fields": {
        "code": "PUD",
        "name": "",
        "parent_code": "",
        "country": "AR",
        "city": "Puerto Deseado",
        "longitude": "-65.916667",
        "latitude": "-47.75",
        "train_station": false,
        "bus_station": false,
        "active": true,
        "timezone": "America/Argentina/Buenos_Aires"
    }
},
{
    "model": "resources.airport",
    "pk": 60,
    "fields": {
        "code": "PMY",
        "name": "",
        "parent_code": "",
        "country": "AR",
        "city": "Puerto Madryn",
        "longitude": "-65.066667",
        "latitude": "-42.733333",
        "train_station": false,
        "bus_station": false,
        "active": true,
        "timezone": "America/Argentina/Buenos_Aires"
    }
},
{
    "model": "resources.airport",
    "pk": 61,
    "fields": {
        "code": "RCQ",
        "name": "",
        "parent_code": "",
        "country": "AR",
        "city": "Reconquista",
        "longitude": "-59.7",
        "latitude": "-29.183333",
        "train_station": false,
        "bus_station": false,
        "active": true,
        "timezone": "America/Argentina/Buenos_Aires"
    }
},
{
    "model": "resources.airport",
    "pk": 62,
    "fields": {
        "code": "RES",
        "name": "",
        "parent_code": "",
        "country": "AR",
        "city": "Resistencia",
        "longitude": "-59.050833",
        "latitude": "-27.451389",
        "train_station": false,
        "bus_station": false,
        "active": true,
        "timezone": "America/Argentina/Buenos_Aires"
    }
},
{
    "model": "resources.airport",
    "pk": 63,
    "fields": {
        "code": "RCU",
        "name": "",
        "parent_code": "",
        "country": "AR",
        "city": "Rio Cuarto",
        "longitude": "-64.331667",
        "latitude": "-33.165556",
        "train_station": false,
        "bus_station": false,
        "active": true,
        "timezone": "America/Argentina/Buenos_Aires"
    }
},
{
    "model": "resources.airport",
    "pk": 64,
    "fields": {
        "code": "RGL",
        "name": "International",
        "parent_code": "",
        "country": "AR",
        "city": "Rio Gallegos",
        "longitude": "-69.283333",
        "latitude": "-51.616667",
        "train_station": false,
        "bus_station": false,
        "active": true,
        "timezone": "America/Argentina/Buenos_Aires"
    }
},
{
    "model": "resources.airport",
    "pk": 65,
    "fields": {
        "code": "RGA",
        "name": "",
        "parent_code": "",
        "country": "AR",
        "city": "Rio Grande",
        "longitude": "-67.75",
        "latitude": "-53.779167",
        "train_station": false,
        "bus_station": false,
        "active": true,
        "timezone": "America/Argentina/Buenos_Aires"
    }
},
{
    "model": "resources.airport",
    "pk": 66,
    "fields": {
        "code": "ROY",
        "name": "",
        "parent_code": "",
        "country": "AR",
        "city": "Rio Mayo",
        "longitude": "-70.25",
        "latitude": "-45.666667",
        "train_station": false,
        "bus_station": false,
        "active": true,
        "timezone": "America/Argentina/Buenos_Aires"
    }
},
{
    "model": "resources.airport",
    "pk": 67,
    "fields": {
        "code": "ROS",
        "name": "",
        "parent_code": "",
        "country": "AR",
        "city": "Rosario",
        "longitude": "-60.783333",
        "latitude": "-32.933333",
        "train_station": false,
        "bus_station": false,
        "active": true,
        "timezone": "America/Argentina/Buenos_Aires"
    }
},
{
    "model": "resources.airport",
    "pk": 68,
    "fields": {
        "code": "OES",
        "name": "",
        "parent_code": "",
        "country": "AR",
        "city": "San Antonio Oeste",
        "longitude": "-64.95",
        "latitude": "-40.733333",
        "train_station": false,
        "bus_station": false,
        "active": true,
        "timezone": "America/Argentina/Buenos_Aires"
    }
},
{
    "model": "resources.airport",
    "pk": 69,
    "fields": {
        "code": "BRC",
        "name": "",
        "parent_code": "",
        "country": "AR",
        "city": "San Carlos",
        "longitude": "-71.161085",
        "latitude": "-41.145965",
        "train_station": false,
        "bus_station": false,
        "active": true,
        "timezone": "America/Argentina/Buenos_Aires"
    }
},
{
    "model": "resources.airport",
    "pk": 70,
    "fields": {
        "code": "UAQ",
        "name": "",
        "parent_code": "",
        "country": "AR",
        "city": "San Juan",
        "longitude": "-68.516667",
        "latitude": "-31.55",
        "train_station": false,
        "bus_station": false,
        "active": true,
        "timezone": "America/Argentina/Buenos_Aires"
    }
},
{
    "model": "resources.airport",
    "pk": 71,
    "fields": {
        "code": "ULA",
        "name": "",
        "parent_code": "",
        "country": "AR",
        "city": "San Julian",
        "longitude": "-67.666667",
        "latitude": "-49.316667",
        "train_station": false,
        "bus_station": false,
        "active": true,
        "timezone": "America/Argentina/Buenos_Aires"
    }
},
{
    "model": "resources.airport",
    "pk": 72,
    "fields": {
        "code": "LUQ",
        "name": "",
        "parent_code": "",
        "country": "AR",
        "city": "San Luis",
        "longitude": "-66.358611",
        "latitude": "-33.274444",
        "train_station": false,
        "bus_station": false,
        "active": true,
        "timezone": "America/Argentina/Buenos_Aires"
    }
},
{
    "model": "resources.airport",
    "pk": 73,
    "fields": {
        "code": "CPC",
        "name": "",
        "parent_code": "",
        "country": "AR",
        "city": "San Martin De Los Andes",
        "longitude": "-71.133333",
        "latitude": "-40.066667",
        "train_station": false,
        "bus_station": false,
        "active": true,
        "timezone": "America/Argentina/Buenos_Aires"
    }
},
{
    "model": "resources.airport",
    "pk": 74,
    "fields": {
        "code": "AFA",
        "name": "",
        "parent_code": "",
        "country": "AR",
        "city": "San Rafael",
        "longitude": "-68.400556",
        "latitude": "-34.589167",
        "train_station": false,
        "bus_station": false,
        "active": true,
        "timezone": "America/Argentina/Buenos_Aires"
    }
},
{
    "model": "resources.airport",
    "pk": 75,
    "fields": {
        "code": "RSA",
        "name": "",
        "parent_code": "",
        "country": "AR",
        "city": "Santa Rosa",
        "longitude": "-64.266667",
        "latitude": "-36.566667",
        "train_station": false,
        "bus_station": false,
        "active": true,
        "timezone": "America/Argentina/Buenos_Aires"
    }
},
{
    "model": "resources.airport",
    "pk": 76,
    "fields": {
        "code": "REL",
        "name": "",
        "parent_code": "",
        "country": "AR",
        "city": "Trelew",
        "longitude": "-65.323333",
        "latitude": "-43.233333",
        "train_station": false,
        "bus_station": false,
        "active": true,
        "timezone": "America/Argentina/Buenos_Aires"
    }
},
{
    "model": "resources.airport",
    "pk": 77,
    "fields": {
        "code": "TUC",
        "name": "",
        "parent_code": "",
        "country": "AR",
        "city": "Tucuman",
        "longitude": "-65.2",
        "latitude": "-26.833333",
        "train_station": false,
        "bus_station": false,
        "active": true,
        "timezone": "America/Argentina/Buenos_Aires"
    }
},
{
    "model": "resources.airport",
    "pk": 78,
    "fields": {
        "code": "USH",
        "name": "Islas Malvinas Airport",
        "parent_code": "",
        "country": "AR",
        "city": "Ushuaia",
        "longitude": "-68.312449",
        "latitude": "-54.839347",
        "train_station": false,
        "bus_station": false,
        "active": true,
        "timezone": "America/Argentina/Buenos_Aires"
    }
},
{
    "model": "resources.airport",
    "pk": 79,
    "fields": {
        "code": "VDM",
        "name": "",
        "parent_code": "",
        "country": "AR",
        "city": "Viedma",
        "longitude": "-63.000838",
        "latitude": "-40.86429",
        "train_station": false,
        "bus_station": false,
        "active": true,
        "timezone": "America/Argentina/Buenos_Aires"
    }
},
{
    "model": "resources.airport",
    "pk": 80,
    "fields": {
        "code": "VLG",
        "name": "",
        "parent_code": "",
        "country": "AR",
        "city": "Villa Gesell",
        "longitude": "-57.583333",
        "latitude": "-38.016667",
        "train_station": false,
        "bus_station": false,
        "active": true,
        "timezone": "America/Argentina/Buenos_Aires"
    }
},
{
    "model": "resources.airport",
    "pk": 81,
    "fields": {
        "code": "VME",
        "name": "",
        "parent_code": "",
        "country": "AR",
        "city": "Villa Mercedes",
        "longitude": "-65.416667",
        "latitude": "-33.633333",
        "train_station": false,
        "bus_station": false,
        "active": true,
        "timezone": "America/Argentina/Buenos_Aires"
    }
},
{
    "model": "resources.airport",
    "pk": 82,
    "fields": {
        "code": "LWN",
        "name": "",
        "parent_code": "",
        "country": "AM",
        "city": "Gyumri",
        "longitude": "43.833333",
        "latitude": "40.716667",
        "train_station": false,
        "bus_station": false,
        "active": true,
        "timezone": "Asia/Yerevan"
    }
},
{
    "model": "resources.airport",
    "pk": 83,
    "fields": {
        "code": "EVN",
        "name": "Zvartnots Int. Airport",
        "parent_code": "",
        "country": "AM",
        "city": "Yerevan",
        "longitude": "44.39805",
        "latitude": "40.15272",
        "train_station": false,
        "bus_station": false,
        "active": true,
        "timezone": "Asia/Yerevan"
    }
},
{
    "model": "resources.airport",
    "pk": 84,
    "fields": {
        "code": "AUA",
        "name": "Reina Beatrix Airport",
        "parent_code": "",
        "country": "AW",
        "city": "Aruba",
        "longitude": "-70.013889",
        "latitude": "12.502222",
        "train_station": false,
        "bus_station": false,
        "active": true,
        "timezone": "America/Aruba"
    }
},
{
    "model": "resources.airport",
    "pk": 85,
    "fields": {
        "code": "ADL",
        "name": "Adelaide Airport",
        "parent_code": "",
        "country": "AU",
        "city": "Adelaide",
        "longitude": "138.537351",
        "latitude": "-34.938176",
        "train_station": false,
        "bus_station": false,
        "active": true,
        "timezone": "Australia/Adelaide"
    }
},
{
    "model": "resources.airport",
    "pk": 86,
    "fields": {
        "code": "ABX",
        "name": "",
        "parent_code": "",
        "country": "AU",
        "city": "Albury",
        "longitude": "146.954531",
        "latitude": "-36.069625",
        "train_station": false,
        "bus_station": false,
        "active": true,
        "timezone": "Australia/Sydney"
    }
},
{
    "model": "resources.airport",
    "pk": 87,
    "fields": {
        "code": "ASP",
        "name": "",
        "parent_code": "",
        "country": "AU",
        "city": "Alice Springs",
        "longitude": "133.903384",
        "latitude": "-23.801389",
        "train_station": false,
        "bus_station": false,
        "active": true,
        "timezone": "Australia/Darwin"
    }
},
{
    "model": "resources.airport",
    "pk": 88,
    "fields": {
        "code": "GYL",
        "name": "",
        "parent_code": "",
        "country": "AU",
        "city": "Argyle",
        "longitude": "128.666667",
        "latitude": "-16.333333",
        "train_station": false,
        "bus_station": false,
        "active": true,
        "timezone": "Australia/Perth"
    }
},
{
    "model": "resources.airport",
    "pk": 89,
    "fields": {
        "code": "ARM",
        "name": "",
        "parent_code": "",
        "country": "AU",
        "city": "Armidale",
        "longitude": "151.61493",
        "latitude": "-30.532297",
        "train_station": false,
        "bus_station": false,
        "active": true,
        "timezone": "Australia/Sydney"
    }
},
{
    "model": "resources.airport",
    "pk": 90,
    "fields": {
        "code": "AUU",
        "name": "",
        "parent_code": "",
        "country": "AU",
        "city": "Aurukun",
        "longitude": "142.25",
        "latitude": "-13.166667",
        "train_station": false,
        "bus_station": false,
        "active": true,
        "timezone": "Australia/Brisbane"
    }
},
{
    "model": "resources.airport",
    "pk": 91,
    "fields": {
        "code": "AYQ",
        "name": "Connellan Airport",
        "parent_code": "",
        "country": "AU",
        "city": "Ayers Rock",
        "longitude": "130.976578",
        "latitude": "-25.190877",
        "train_station": false,
        "bus_station": false,
        "active": true,
        "timezone": "Australia/Darwin"
    }
},
{
    "model": "resources.airport",
    "pk": 92,
    "fields": {
        "code": "BDD",
        "name": "",
        "parent_code": "",
        "country": "AU",
        "city": "Badu Island",
        "longitude": "142.171657",
        "latitude": "-10.148655",
        "train_station": false,
        "bus_station": false,
        "active": true,
        "timezone": "Australia/Brisbane"
    }
},
{
    "model": "resources.airport",
    "pk": 93,
    "fields": {
        "code": "BNK",
        "name": "",
        "parent_code": "",
        "country": "AU",
        "city": "Ballina",
        "longitude": "153.556396",
        "latitude": "-28.837606",
        "train_station": false,
        "bus_station": false,
        "active": true,
        "timezone": "Australia/Sydney"
    }
},
{
    "model": "resources.airport",
    "pk": 94,
    "fields": {
        "code": "ABM",
        "name": "",
        "parent_code": "",
        "country": "AU",
        "city": "Bamaga",
        "longitude": "142.450334",
        "latitude": "-10.942619",
        "train_station": false,
        "bus_station": false,
        "active": true,
        "timezone": "Australia/Brisbane"
    }
},
{
    "model": "resources.airport",
    "pk": 95,
    "fields": {
        "code": "BCI",
        "name": "",
        "parent_code": "",
        "country": "AU",
        "city": "Barcaldine",
        "longitude": "145.301944",
        "latitude": "-23.559167",
        "train_station": false,
        "bus_station": false,
        "active": true,
        "timezone": "Australia/Brisbane"
    }
},
{
    "model": "resources.airport",
    "pk": 96,
    "fields": {
        "code": "BHS",
        "name": "",
        "parent_code": "",
        "country": "AU",
        "city": "Bathurst",
        "longitude": "149.655181",
        "latitude": "-33.413872",
        "train_station": false,
        "bus_station": false,
        "active": true,
        "timezone": "Australia/Sydney"
    }
},
{
    "model": "resources.airport",
    "pk": 97,
    "fields": {
        "code": "BRT",
        "name": "",
        "parent_code": "",
        "country": "AU",
        "city": "Bathurst Island",
        "longitude": "130.633333",
        "latitude": "-11.766667",
        "train_station": false,
        "bus_station": false,
        "active": true,
        "timezone": "Australia/Darwin"
    }
},
{
    "model": "resources.airport",
    "pk": 98,
    "fields": {
        "code": "BEU",
        "name": "",
        "parent_code": "",
        "country": "AU",
        "city": "Bedourie",
        "longitude": "139.445",
        "latitude": "-24.23",
        "train_station": false,
        "bus_station": false,
        "active": true,
        "timezone": "Australia/Brisbane"
    }
},
{
    "model": "resources.airport",
    "pk": 99,
    "fields": {
        "code": "BVI",
        "name": "",
        "parent_code": "",
        "country": "AU",
        "city": "Birdsville",
        "longitude": "139.343333",
        "latitude": "-25.898333",
        "train_station": false,
        "bus_station": false,
        "active": true,
        "timezone": "Australia/Brisbane"
    }
},
{
    "model": "resources.airport",
    "pk": 100,
    "fields": {
        "code": "BKQ",
        "name": "",
        "parent_code": "",
        "country": "AU",
        "city": "Blackall",
        "longitude": "145.428333",
        "latitude": "-24.434167",
        "train_station": false,
        "bus_station": false,
        "active": true,
        "timezone": "Australia/Brisbane"
    }
},
{
    "model": "resources.airport",
    "pk": 101,
    "fields": {
        "code": "BLT",
        "name": "",
        "parent_code": "",
        "country": "AU",
        "city": "Blackwater",
        "longitude": "148.808401",
        "latitude": "-23.602184",
        "train_station": false,
        "bus_station": false,
        "active": true,
        "timezone": "Australia/Brisbane"
    }
},
{
    "model": "resources.airport",
    "pk": 102,
    "fields": {
        "code": "GIC",
        "name": "",
        "parent_code": "",
        "country": "AU",
        "city": "Boigu Island",
        "longitude": "142.216667",
        "latitude": "-9.233333",
        "train_station": false,
        "bus_station": false,
        "active": true,
        "timezone": "Australia/Brisbane"
    }
},
{
    "model": "resources.airport",
    "pk": 103,
    "fields": {
        "code": "BOX",
        "name": "",
        "parent_code": "",
        "country": "AU",
        "city": "Borroloola",
        "longitude": "136.283333",
        "latitude": "-16.066667",
        "train_station": false,
        "bus_station": false,
        "active": true,
        "timezone": "Australia/Darwin"
    }
},
{
    "model": "resources.airport",
    "pk": 104,
    "fields": {
        "code": "BQL",
        "name": "",
        "parent_code": "",
        "country": "AU",
        "city": "Boulia",
        "longitude": "139.9",
        "latitude": "-22.9",
        "train_station": false,
        "bus_station": false,
        "active": true,
        "timezone": "Australia/Brisbane"
    }
},
{
    "model": "resources.airport",
    "pk": 105,
    "fields": {
        "code": "BRK",
        "name": "",
        "parent_code": "",
        "country": "AU",
        "city": "Bourke",
        "longitude": "145.933333",
        "latitude": "-30.083333",
        "train_station": false,
        "bus_station": false,
        "active": true,
        "timezone": "Australia/Sydney"
    }
},
{
    "model": "resources.airport",
    "pk": 106,
    "fields": {
        "code": "BMP",
        "name": "",
        "parent_code": "",
        "country": "AU",
        "city": "Brampton Island",
        "longitude": "149.233333",
        "latitude": "-20.783333",
        "train_station": false,
        "bus_station": false,
        "active": true,
        "timezone": "Australia/Brisbane"
    }
},
{
    "model": "resources.airport",
    "pk": 107,
    "fields": {
        "code": "BWQ",
        "name": "",
        "parent_code": "",
        "country": "AU",
        "city": "Brewarrina",
        "longitude": "146.866667",
        "latitude": "-29.95",
        "train_station": false,
        "bus_station": false,
        "active": true,
        "timezone": "Australia/Sydney"
    }
},
{
    "model": "resources.airport",
    "pk": 108,
    "fields": {
        "code": "BNE",
        "name": "Brisbane Airport",
        "parent_code": "",
        "country": "AU",
        "city": "Brisbane",
        "longitude": "153.109058",
        "latitude": "-27.403031",
        "train_station": false,
        "bus_station": false,
        "active": true,
        "timezone": "Australia/Brisbane"
    }
},
{
    "model": "resources.airport",
    "pk": 109,
    "fields": {
        "code": "BHQ",
        "name": "",
        "parent_code": "",
        "country": "AU",
        "city": "Broken Hill",
        "longitude": "141.468573",
        "latitude": "-31.998984",
        "train_station": false,
        "bus_station": false,
        "active": true,
        "timezone": "Australia/Adelaide"
    }
},
{
    "model": "resources.airport",
    "pk": 110,
    "fields": {
        "code": "BME",
        "name": "",
        "parent_code": "",
        "country": "AU",
        "city": "Broome",
        "longitude": "122.23429",
        "latitude": "-17.952641",
        "train_station": false,
        "bus_station": false,
        "active": true,
        "timezone": "Australia/Perth"
    }
},
{
    "model": "resources.airport",
    "pk": 111,
    "fields": {
        "code": "BDB",
        "name": "",
        "parent_code": "",
        "country": "AU",
        "city": "Bundaberg",
        "longitude": "152.321873",
        "latitude": "-24.898709",
        "train_station": false,
        "bus_station": false,
        "active": true,
        "timezone": "Australia/Brisbane"
    }
},
{
    "model": "resources.airport",
    "pk": 112,
    "fields": {
        "code": "BUC",
        "name": "",
        "parent_code": "",
        "country": "AU",
        "city": "Burketown",
        "longitude": "139.533333",
        "latitude": "-17.75",
        "train_station": false,
        "bus_station": false,
        "active": true,
        "timezone": "Australia/Brisbane"
    }
},
{
    "model": "resources.airport",
    "pk": 113,
    "fields": {
        "code": "BWT",
        "name": "",
        "parent_code": "",
        "country": "AU",
        "city": "Burnie",
        "longitude": "145.725074",
        "latitude": "-40.993145",
        "train_station": false,
        "bus_station": false,
        "active": true,
        "timezone": "Australia/Hobart"
    }
},
{
    "model": "resources.airport",
    "pk": 114,
    "fields": {
        "code": "CNS",
        "name": "Cairns Airport",
        "parent_code": "",
        "country": "AU",
        "city": "Cairns",
        "longitude": "145.754041",
        "latitude": "-16.876538",
        "train_station": false,
        "bus_station": false,
        "active": true,
        "timezone": "Australia/Brisbane"
    }
},
{
    "model": "resources.airport",
    "pk": 115,
    "fields": {
        "code": "CBR",
        "name": "Canberra Int. Airport",
        "parent_code": "",
        "country": "AU",
        "city": "Canberra",
        "longitude": "149.190528",
        "latitude": "-35.30735",
        "train_station": false,
        "bus_station": false,
        "active": true,
        "timezone": "Australia/Sydney"
    }
},
{
    "model": "resources.airport",
    "pk": 116,
    "fields": {
        "code": "CVQ",
        "name": "",
        "parent_code": "",
        "country": "AU",
        "city": "Carnarvon",
        "longitude": "113.663584",
        "latitude": "-24.883429",
        "train_station": false,
        "bus_station": false,
        "active": true,
        "timezone": "Australia/Perth"
    }
},
{
    "model": "resources.airport",
    "pk": 117,
    "fields": {
        "code": "CSI",
        "name": "",
        "parent_code": "",
        "country": "AU",
        "city": "Casino",
        "longitude": "153.058333",
        "latitude": "-28.883333",
        "train_station": false,
        "bus_station": false,
        "active": true,
        "timezone": "Australia/Sydney"
    }
},
{
    "model": "resources.airport",
    "pk": 118,
    "fields": {
        "code": "CED",
        "name": "",
        "parent_code": "",
        "country": "AU",
        "city": "Ceduna",
        "longitude": "133.701218",
        "latitude": "-32.123779",
        "train_station": false,
        "bus_station": false,
        "active": true,
        "timezone": "Australia/Adelaide"
    }
},
{
    "model": "resources.airport",
    "pk": 119,
    "fields": {
        "code": "CTL",
        "name": "",
        "parent_code": "",
        "country": "AU",
        "city": "Charleville",
        "longitude": "146.258428",
        "latitude": "-26.413333",
        "train_station": false,
        "bus_station": false,
        "active": true,
        "timezone": "Australia/Brisbane"
    }
},
{
    "model": "resources.airport",
    "pk": 120,
    "fields": {
        "code": "CVC",
        "name": "",
        "parent_code": "",
        "country": "AU",
        "city": "Cleve",
        "longitude": "136.5",
        "latitude": "-33.7",
        "train_station": false,
        "bus_station": false,
        "active": true,
        "timezone": "Australia/Adelaide"
    }
},
{
    "model": "resources.airport",
    "pk": 121,
    "fields": {
        "code": "CNJ",
        "name": "",
        "parent_code": "",
        "country": "AU",
        "city": "Cloncurry",
        "longitude": "140.508521",
        "latitude": "-20.668905",
        "train_station": false,
        "bus_station": false,
        "active": true,
        "timezone": "Australia/Brisbane"
    }
},
{
    "model": "resources.airport",
    "pk": 122,
    "fields": {
        "code": "CAZ",
        "name": "",
        "parent_code": "",
        "country": "AU",
        "city": "Cobar",
        "longitude": "145.793333",
        "latitude": "-31.535",
        "train_station": false,
        "bus_station": false,
        "active": true,
        "timezone": "Australia/Sydney"
    }
},
{
    "model": "resources.airport",
    "pk": 123,
    "fields": {
        "code": "CNC",
        "name": "",
        "parent_code": "",
        "country": "AU",
        "city": "Coconut Island",
        "longitude": "143.066585",
        "latitude": "-10.050179",
        "train_station": false,
        "bus_station": false,
        "active": true,
        "timezone": "Australia/Brisbane"
    }
},
{
    "model": "resources.airport",
    "pk": 124,
    "fields": {
        "code": "CUQ",
        "name": "",
        "parent_code": "",
        "country": "AU",
        "city": "Coen",
        "longitude": "143.113333",
        "latitude": "-13.763889",
        "train_station": false,
        "bus_station": false,
        "active": true,
        "timezone": "Australia/Brisbane"
    }
},
{
    "model": "resources.airport",
    "pk": 125,
    "fields": {
        "code": "CFS",
        "name": "",
        "parent_code": "",
        "country": "AU",
        "city": "Coffs Harbor",
        "longitude": "153.115301",
        "latitude": "-30.322862",
        "train_station": false,
        "bus_station": false,
        "active": true,
        "timezone": "Australia/Sydney"
    }
},
{
    "model": "resources.airport",
    "pk": 126,
    "fields": {
        "code": "CPD",
        "name": "",
        "parent_code": "",
        "country": "AU",
        "city": "Coober Pedy",
        "longitude": "134.752778",
        "latitude": "-29.044444",
        "train_station": false,
        "bus_station": false,
        "active": true,
        "timezone": "Australia/Adelaide"
    }
},
{
    "model": "resources.airport",
    "pk": 127,
    "fields": {
        "code": "CTN",
        "name": "",
        "parent_code": "",
        "country": "AU",
        "city": "Cooktown",
        "longitude": "145.183333",
        "latitude": "-15.443333",
        "train_station": false,
        "bus_station": false,
        "active": true,
        "timezone": "Australia/Brisbane"
    }
},
{
    "model": "resources.airport",
    "pk": 128,
    "fields": {
        "code": "OOM",
        "name": "",
        "parent_code": "",
        "country": "AU",
        "city": "Cooma",
        "longitude": "148.973333",
        "latitude": "-36.308333",
        "train_station": false,
        "bus_station": false,
        "active": true,
        "timezone": "Australia/Sydney"
    }
},
{
    "model": "resources.airport",
    "pk": 129,
    "fields": {
        "code": "CNB",
        "name": "",
        "parent_code": "",
        "country": "AU",
        "city": "Coonamble",
        "longitude": "148.378333",
        "latitude": "-30.980833",
        "train_station": false,
        "bus_station": false,
        "active": true,
        "timezone": "Australia/Sydney"
    }
},
{
    "model": "resources.airport",
    "pk": 130,
    "fields": {
        "code": "CKI",
        "name": "",
        "parent_code": "",
        "country": "AU",
        "city": "Croker Island",
        "longitude": "132.533333",
        "latitude": "-11.2",
        "train_station": false,
        "bus_station": false,
        "active": true,
        "timezone": "Australia/Darwin"
    }
},
{
    "model": "resources.airport",
    "pk": 131,
    "fields": {
        "code": "CMA",
        "name": "",
        "parent_code": "",
        "country": "AU",
        "city": "Cunnamulla",
        "longitude": "145.616111",
        "latitude": "-28.031389",
        "train_station": false,
        "bus_station": false,
        "active": true,
        "timezone": "Australia/Brisbane"
    }
},
{
    "model": "resources.airport",
    "pk": 132,
    "fields": {
        "code": "NLF",
        "name": "",
        "parent_code": "",
        "country": "AU",
        "city": "Darnley Island",
        "longitude": "143.786901",
        "latitude": "-9.584515",
        "train_station": false,
        "bus_station": false,
        "active": true,
        "timezone": "Australia/Brisbane"
    }
},
{
    "model": "resources.airport",
    "pk": 133,
    "fields": {
        "code": "DRW",
        "name": "Darwin Int.Airport",
        "parent_code": "",
        "country": "AU",
        "city": "Darwin",
        "longitude": "130.877521",
        "latitude": "-12.407805",
        "train_station": false,
        "bus_station": false,
        "active": true,
        "timezone": "Australia/Darwin"
    }
},
{
    "model": "resources.airport",
    "pk": 134,
    "fields": {
        "code": "DDI",
        "name": "",
        "parent_code": "",
        "country": "AU",
        "city": "Daydream Is",
        "longitude": "148.816667",
        "latitude": "-20.266667",
        "train_station": false,
        "bus_station": false,
        "active": true,
        "timezone": "Australia/Brisbane"
    }
},
{
    "model": "resources.airport",
    "pk": 135,
    "fields": {
        "code": "DNM",
        "name": "",
        "parent_code": "",
        "country": "AU",
        "city": "Denham",
        "longitude": "113.533333",
        "latitude": "-25.916667",
        "train_station": false,
        "bus_station": false,
        "active": true,
        "timezone": "Australia/Perth"
    }
},
{
    "model": "resources.airport",
    "pk": 136,
    "fields": {
        "code": "DRB",
        "name": "",
        "parent_code": "",
        "country": "AU",
        "city": "Derby",
        "longitude": "123.6525",
        "latitude": "-17.373333",
        "train_station": false,
        "bus_station": false,
        "active": true,
        "timezone": "Australia/Perth"
    }
},
{
    "model": "resources.airport",
    "pk": 137,
    "fields": {
        "code": "DPO",
        "name": "",
        "parent_code": "",
        "country": "AU",
        "city": "Devonport",
        "longitude": "146.427535",
        "latitude": "-41.172056",
        "train_station": false,
        "bus_station": false,
        "active": true,
        "timezone": "Australia/Hobart"
    }
},
{
    "model": "resources.airport",
    "pk": 138,
    "fields": {
        "code": "DMD",
        "name": "",
        "parent_code": "",
        "country": "AU",
        "city": "Doomadgee",
        "longitude": "138.821596",
        "latitude": "-17.939202",
        "train_station": false,
        "bus_station": false,
        "active": true,
        "timezone": "Australia/Brisbane"
    }
},
{
    "model": "resources.airport",
    "pk": 139,
    "fields": {
        "code": "DBO",
        "name": "",
        "parent_code": "",
        "country": "AU",
        "city": "Dubbo",
        "longitude": "148.569567",
        "latitude": "-32.218822",
        "train_station": false,
        "bus_station": false,
        "active": true,
        "timezone": "Australia/Sydney"
    }
},
{
    "model": "resources.airport",
    "pk": 140,
    "fields": {
        "code": "DKI",
        "name": "",
        "parent_code": "",
        "country": "AU",
        "city": "Dunk Island",
        "longitude": "146.136667",
        "latitude": "-17.941667",
        "train_station": false,
        "bus_station": false,
        "active": true,
        "timezone": "Australia/Brisbane"
    }
},
{
    "model": "resources.airport",
    "pk": 141,
    "fields": {
        "code": "EDR",
        "name": "",
        "parent_code": "",
        "country": "AU",
        "city": "Edward River",
        "longitude": "141.616667",
        "latitude": "-14.9",
        "train_station": false,
        "bus_station": false,
        "active": true,
        "timezone": "Australia/Brisbane"
    }
},
{
    "model": "resources.airport",
    "pk": 142,
    "fields": {
        "code": "ELC",
        "name": "",
        "parent_code": "",
        "country": "AU",
        "city": "Elcho Island",
        "longitude": "135.5698",
        "latitude": "-12.019817",
        "train_station": false,
        "bus_station": false,
        "active": true,
        "timezone": "Australia/Darwin"
    }
},
{
    "model": "resources.airport",
    "pk": 143,
    "fields": {
        "code": "EMD",
        "name": "",
        "parent_code": "",
        "country": "AU",
        "city": "Emerald",
        "longitude": "148.174393",
        "latitude": "-23.568609",
        "train_station": false,
        "bus_station": false,
        "active": true,
        "timezone": "Australia/Brisbane"
    }
},
{
    "model": "resources.airport",
    "pk": 144,
    "fields": {
        "code": "EPR",
        "name": "",
        "parent_code": "",
        "country": "AU",
        "city": "Esperance",
        "longitude": "121.830389",
        "latitude": "-33.682479",
        "train_station": false,
        "bus_station": false,
        "active": true,
        "timezone": "Australia/Perth"
    }
},
{
    "model": "resources.airport",
    "pk": 145,
    "fields": {
        "code": "EXM",
        "name": "",
        "parent_code": "",
        "country": "AU",
        "city": "Exmouth Gulf",
        "longitude": "114.25",
        "latitude": "-22.25",
        "train_station": false,
        "bus_station": false,
        "active": true,
        "timezone": "Australia/Perth"
    }
},
{
    "model": "resources.airport",
    "pk": 146,
    "fields": {
        "code": "FIZ",
        "name": "",
        "parent_code": "",
        "country": "AU",
        "city": "Fitzroy Crossing",
        "longitude": "125.554167",
        "latitude": "-18.178333",
        "train_station": false,
        "bus_station": false,
        "active": true,
        "timezone": "Australia/Perth"
    }
},
{
    "model": "resources.airport",
    "pk": 147,
    "fields": {
        "code": "GPN",
        "name": "",
        "parent_code": "",
        "country": "AU",
        "city": "Garden Point",
        "longitude": "130.016667",
        "latitude": "-11.766667",
        "train_station": false,
        "bus_station": false,
        "active": true,
        "timezone": "Australia/Darwin"
    }
},
{
    "model": "resources.airport",
    "pk": 148,
    "fields": {
        "code": "GET",
        "name": "",
        "parent_code": "",
        "country": "AU",
        "city": "Geraldton",
        "longitude": "114.70205",
        "latitude": "-28.796077",
        "train_station": false,
        "bus_station": false,
        "active": true,
        "timezone": "Australia/Perth"
    }
},
{
    "model": "resources.airport",
    "pk": 149,
    "fields": {
        "code": "GLT",
        "name": "",
        "parent_code": "",
        "country": "AU",
        "city": "Gladstone",
        "longitude": "151.223506",
        "latitude": "-23.871469",
        "train_station": false,
        "bus_station": false,
        "active": true,
        "timezone": "Australia/Brisbane"
    }
},
{
    "model": "resources.airport",
    "pk": 150,
    "fields": {
        "code": "GLI",
        "name": "",
        "parent_code": "",
        "country": "AU",
        "city": "Glen Innes",
        "longitude": "151.690833",
        "latitude": "-29.676667",
        "train_station": false,
        "bus_station": false,
        "active": true,
        "timezone": "Australia/Sydney"
    }
},
{
    "model": "resources.airport",
    "pk": 151,
    "fields": {
        "code": "OOL",
        "name": "Coolangatta Airport",
        "parent_code": "",
        "country": "AU",
        "city": "Gold Coast",
        "longitude": "153.513137",
        "latitude": "-28.166164",
        "train_station": false,
        "bus_station": false,
        "active": true,
        "timezone": "Australia/Brisbane"
    }
},
{
    "model": "resources.airport",
    "pk": 152,
    "fields": {
        "code": "GBL",
        "name": "",
        "parent_code": "",
        "country": "AU",
        "city": "Goulburn Island",
        "longitude": "133.433333",
        "latitude": "-11.55",
        "train_station": false,
        "bus_station": false,
        "active": true,
        "timezone": "Australia/Darwin"
    }
},
{
    "model": "resources.airport",
    "pk": 153,
    "fields": {
        "code": "GOV",
        "name": "",
        "parent_code": "",
        "country": "AU",
        "city": "Gove",
        "longitude": "136.822653",
        "latitude": "-12.269595",
        "train_station": false,
        "bus_station": false,
        "active": true,
        "timezone": "Australia/Darwin"
    }
},
{
    "model": "resources.airport",
    "pk": 154,
    "fields": {
        "code": "GFN",
        "name": "",
        "parent_code": "",
        "country": "AU",
        "city": "Grafton",
        "longitude": "153.028334",
        "latitude": "-29.759522",
        "train_station": false,
        "bus_station": false,
        "active": true,
        "timezone": "Australia/Sydney"
    }
},
{
    "model": "resources.airport",
    "pk": 155,
    "fields": {
        "code": "GFF",
        "name": "",
        "parent_code": "",
        "country": "AU",
        "city": "Griffith",
        "longitude": "146.062694",
        "latitude": "-34.255434",
        "train_station": false,
        "bus_station": false,
        "active": true,
        "timezone": "Australia/Sydney"
    }
},
{
    "model": "resources.airport",
    "pk": 156,
    "fields": {
        "code": "GTE",
        "name": "",
        "parent_code": "",
        "country": "AU",
        "city": "Groote Eylandt",
        "longitude": "136.460016",
        "latitude": "-13.973887",
        "train_station": false,
        "bus_station": false,
        "active": true,
        "timezone": "Australia/Darwin"
    }
},
{
    "model": "resources.airport",
    "pk": 157,
    "fields": {
        "code": "HCQ",
        "name": "",
        "parent_code": "",
        "country": "AU",
        "city": "Halls Creek",
        "longitude": "127.666667",
        "latitude": "-18.233333",
        "train_station": false,
        "bus_station": false,
        "active": true,
        "timezone": "Australia/Perth"
    }
},
{
    "model": "resources.airport",
    "pk": 158,
    "fields": {
        "code": "HTI",
        "name": "",
        "parent_code": "",
        "country": "AU",
        "city": "Hamilton Island",
        "longitude": "148.948474",
        "latitude": "-20.35175",
        "train_station": false,
        "bus_station": false,
        "active": true,
        "timezone": "Australia/Brisbane"
    }
},
{
    "model": "resources.airport",
    "pk": 159,
    "fields": {
        "code": "HIS",
        "name": "",
        "parent_code": "",
        "country": "AU",
        "city": "Hayman Island",
        "longitude": "148.866667",
        "latitude": "-20.066667",
        "train_station": false,
        "bus_station": false,
        "active": true,
        "timezone": "Australia/Brisbane"
    }
},
{
    "model": "resources.airport",
    "pk": 160,
    "fields": {
        "code": "HVB",
        "name": "",
        "parent_code": "",
        "country": "AU",
        "city": "Hervey Bay",
        "longitude": "152.885203",
        "latitude": "-25.319868",
        "train_station": false,
        "bus_station": false,
        "active": true,
        "timezone": "Australia/Brisbane"
    }
},
{
    "model": "resources.airport",
    "pk": 161,
    "fields": {
        "code": "HBA",
        "name": "Hobart Int. Airport",
        "parent_code": "",
        "country": "AU",
        "city": "Hobart",
        "longitude": "147.505185",
        "latitude": "-42.837257",
        "train_station": false,
        "bus_station": false,
        "active": true,
        "timezone": "Australia/Hobart"
    }
},
{
    "model": "resources.airport",
    "pk": 162,
    "fields": {
        "code": "HOK",
        "name": "",
        "parent_code": "",
        "country": "AU",
        "city": "Hooker",
        "longitude": "130.6325",
        "latitude": "-18.335",
        "train_station": false,
        "bus_station": false,
        "active": true,
        "timezone": "Australia/Darwin"
    }
},
{
    "model": "resources.airport",
    "pk": 163,
    "fields": {
        "code": "HID",
        "name": "",
        "parent_code": "",
        "country": "AU",
        "city": "Horn Island",
        "longitude": "142.283333",
        "latitude": "-10.583333",
        "train_station": false,
        "bus_station": false,
        "active": true,
        "timezone": "Australia/Brisbane"
    }
},
{
    "model": "resources.airport",
    "pk": 164,
    "fields": {
        "code": "HGD",
        "name": "",
        "parent_code": "",
        "country": "AU",
        "city": "Hughenden",
        "longitude": "144.224444",
        "latitude": "-20.818889",
        "train_station": false,
        "bus_station": false,
        "active": true,
        "timezone": "Australia/Brisbane"
    }
},
{
    "model": "resources.airport",
    "pk": 165,
    "fields": {
        "code": "IVR",
        "name": "",
        "parent_code": "",
        "country": "AU",
        "city": "Inverell",
        "longitude": "151.14056",
        "latitude": "-29.883895",
        "train_station": false,
        "bus_station": false,
        "active": true,
        "timezone": "Australia/Sydney"
    }
},
{
    "model": "resources.airport",
    "pk": 166,
    "fields": {
        "code": "JCK",
        "name": "",
        "parent_code": "",
        "country": "AU",
        "city": "Julia Creek",
        "longitude": "141.7",
        "latitude": "-20.583333",
        "train_station": false,
        "bus_station": false,
        "active": true,
        "timezone": "Australia/Brisbane"
    }
},
{
    "model": "resources.airport",
    "pk": 167,
    "fields": {
        "code": "KAX",
        "name": "",
        "parent_code": "",
        "country": "AU",
        "city": "Kalbarri",
        "longitude": "114.133333",
        "latitude": "-27.866667",
        "train_station": false,
        "bus_station": false,
        "active": true,
        "timezone": "Australia/Perth"
    }
},
{
    "model": "resources.airport",
    "pk": 168,
    "fields": {
        "code": "KTR",
        "name": "",
        "parent_code": "",
        "country": "AU",
        "city": "Katherine",
        "longitude": "132.271389",
        "latitude": "-14.4575",
        "train_station": false,
        "bus_station": false,
        "active": true,
        "timezone": "Australia/Darwin"
    }
},
{
    "model": "resources.airport",
    "pk": 169,
    "fields": {
        "code": "KWM",
        "name": "",
        "parent_code": "",
        "country": "AU",
        "city": "Kowanyama",
        "longitude": "141.748333",
        "latitude": "-15.4875",
        "train_station": false,
        "bus_station": false,
        "active": true,
        "timezone": "Australia/Brisbane"
    }
},
{
    "model": "resources.airport",
    "pk": 170,
    "fields": {
        "code": "KUG",
        "name": "",
        "parent_code": "",
        "country": "AU",
        "city": "Kubin Island",
        "longitude": "142.3",
        "latitude": "-10.233333",
        "train_station": false,
        "bus_station": false,
        "active": true,
        "timezone": "Australia/Brisbane"
    }
},
{
    "model": "resources.airport",
    "pk": 171,
    "fields": {
        "code": "LST",
        "name": "",
        "parent_code": "",
        "country": "AU",
        "city": "Launceston",
        "longitude": "147.205328",
        "latitude": "-41.543511",
        "train_station": false,
        "bus_station": false,
        "active": true,
        "timezone": "Australia/Hobart"
    }
},
{
    "model": "resources.airport",
    "pk": 172,
    "fields": {
        "code": "LVO",
        "name": "",
        "parent_code": "",
        "country": "AU",
        "city": "Laverton",
        "longitude": "122.366667",
        "latitude": "-28.633333",
        "train_station": false,
        "bus_station": false,
        "active": true,
        "timezone": "Australia/Perth"
    }
},
{
    "model": "resources.airport",
    "pk": 173,
    "fields": {
        "code": "LEA",
        "name": "",
        "parent_code": "",
        "country": "AU",
        "city": "Learmonth",
        "longitude": "114.094265",
        "latitude": "-22.239883",
        "train_station": false,
        "bus_station": false,
        "active": true,
        "timezone": "Australia/Perth"
    }
},
{
    "model": "resources.airport",
    "pk": 174,
    "fields": {
        "code": "LER",
        "name": "",
        "parent_code": "",
        "country": "AU",
        "city": "Leinster",
        "longitude": "120.616667",
        "latitude": "-27.833333",
        "train_station": false,
        "bus_station": false,
        "active": true,
        "timezone": "Australia/Perth"
    }
},
{
    "model": "resources.airport",
    "pk": 175,
    "fields": {
        "code": "LNO",
        "name": "",
        "parent_code": "",
        "country": "AU",
        "city": "Leonora",
        "longitude": "121.316924",
        "latitude": "-28.879344",
        "train_station": false,
        "bus_station": false,
        "active": true,
        "timezone": "Australia/Perth"
    }
},
{
    "model": "resources.airport",
    "pk": 176,
    "fields": {
        "code": "LHG",
        "name": "",
        "parent_code": "",
        "country": "AU",
        "city": "Lightning Ridge",
        "longitude": "147.983333",
        "latitude": "-29.458333",
        "train_station": false,
        "bus_station": false,
        "active": true,
        "timezone": "Australia/Sydney"
    }
},
{
    "model": "resources.airport",
    "pk": 177,
    "fields": {
        "code": "LDC",
        "name": "",
        "parent_code": "",
        "country": "AU",
        "city": "Lindeman Island",
        "longitude": "149.0",
        "latitude": "-21.0",
        "train_station": false,
        "bus_station": false,
        "active": true,
        "timezone": "Australia/Brisbane"
    }
},
{
    "model": "resources.airport",
    "pk": 178,
    "fields": {
        "code": "LSY",
        "name": "",
        "parent_code": "",
        "country": "AU",
        "city": "Lismore",
        "longitude": "153.263362",
        "latitude": "-28.836652",
        "train_station": false,
        "bus_station": false,
        "active": true,
        "timezone": "Australia/Sydney"
    }
},
{
    "model": "resources.airport",
    "pk": 179,
    "fields": {
        "code": "LZR",
        "name": "",
        "parent_code": "",
        "country": "AU",
        "city": "Lizard Island",
        "longitude": "145.466667",
        "latitude": "-14.666667",
        "train_station": false,
        "bus_station": false,
        "active": true,
        "timezone": "Australia/Brisbane"
    }
},
{
    "model": "resources.airport",
    "pk": 180,
    "fields": {
        "code": "IRG",
        "name": "",
        "parent_code": "",
        "country": "AU",
        "city": "Lockhart River",
        "longitude": "143.3125",
        "latitude": "-12.788889",
        "train_station": false,
        "bus_station": false,
        "active": true,
        "timezone": "Australia/Brisbane"
    }
},
{
    "model": "resources.airport",
    "pk": 181,
    "fields": {
        "code": "HAP",
        "name": "",
        "parent_code": "",
        "country": "AU",
        "city": "Long Island",
        "longitude": "148.75",
        "latitude": "-20.5",
        "train_station": false,
        "bus_station": false,
        "active": true,
        "timezone": "Australia/Brisbane"
    }
},
{
    "model": "resources.airport",
    "pk": 182,
    "fields": {
        "code": "LRE",
        "name": "",
        "parent_code": "",
        "country": "AU",
        "city": "Longreach",
        "longitude": "144.271464",
        "latitude": "-23.439475",
        "train_station": false,
        "bus_station": false,
        "active": true,
        "timezone": "Australia/Brisbane"
    }
},
{
    "model": "resources.airport",
    "pk": 183,
    "fields": {
        "code": "LDH",
        "name": "",
        "parent_code": "",
        "country": "AU",
        "city": "Lord Howe Island",
        "longitude": "159.078148",
        "latitude": "-31.540807",
        "train_station": false,
        "bus_station": false,
        "active": true,
        "timezone": "Australia/Sydney"
    }
},
{
    "model": "resources.airport",
    "pk": 184,
    "fields": {
        "code": "UBB",
        "name": "",
        "parent_code": "",
        "country": "AU",
        "city": "Mabuiag Island",
        "longitude": "142.183333",
        "latitude": "-9.95",
        "train_station": false,
        "bus_station": false,
        "active": true,
        "timezone": "Australia/Brisbane"
    }
},
{
    "model": "resources.airport",
    "pk": 185,
    "fields": {
        "code": "MKY",
        "name": "",
        "parent_code": "",
        "country": "AU",
        "city": "Mackay",
        "longitude": "149.181789",
        "latitude": "-21.176284",
        "train_station": false,
        "bus_station": false,
        "active": true,
        "timezone": "Australia/Brisbane"
    }
},
{
    "model": "resources.airport",
    "pk": 186,
    "fields": {
        "code": "MNG",
        "name": "",
        "parent_code": "",
        "country": "AU",
        "city": "Maningrida",
        "longitude": "134.232266",
        "latitude": "-12.05492",
        "train_station": false,
        "bus_station": false,
        "active": true,
        "timezone": "Australia/Darwin"
    }
},
{
    "model": "resources.airport",
    "pk": 187,
    "fields": {
        "code": "MBH",
        "name": "",
        "parent_code": "",
        "country": "AU",
        "city": "Maryborough",
        "longitude": "152.713333",
        "latitude": "-25.516667",
        "train_station": false,
        "bus_station": false,
        "active": true,
        "timezone": "Australia/Brisbane"
    }
},
{
    "model": "resources.airport",
    "pk": 188,
    "fields": {
        "code": "MCV",
        "name": "",
        "parent_code": "",
        "country": "AU",
        "city": "Mcarthur River",
        "longitude": "136.095",
        "latitude": "-16.466667",
        "train_station": false,
        "bus_station": false,
        "active": true,
        "timezone": "Australia/Darwin"
    }
},
{
    "model": "resources.airport",
    "pk": 189,
    "fields": {
        "code": "MKR",
        "name": "",
        "parent_code": "",
        "country": "AU",
        "city": "Meekatharra",
        "longitude": "118.545959",
        "latitude": "-26.61113",
        "train_station": false,
        "bus_station": false,
        "active": true,
        "timezone": "Australia/Perth"
    }
},
{
    "model": "resources.airport",
    "pk": 190,
    "fields": {
        "code": "MEL",
        "name": "Melbourne, Tullamarine Airport",
        "parent_code": "",
        "country": "AU",
        "city": "Melbourne",
        "longitude": "144.849777",
        "latitude": "-37.669611",
        "train_station": false,
        "bus_station": false,
        "active": true,
        "timezone": "Australia/Sydney"
    }
},
{
    "model": "resources.airport",
    "pk": 191,
    "fields": {
        "code": "MIM",
        "name": "",
        "parent_code": "",
        "country": "AU",
        "city": "Merimbula",
        "longitude": "149.902029",
        "latitude": "-36.910044",
        "train_station": false,
        "bus_station": false,
        "active": true,
        "timezone": "Australia/Sydney"
    }
},
{
    "model": "resources.airport",
    "pk": 192,
    "fields": {
        "code": "MQL",
        "name": "",
        "parent_code": "",
        "country": "AU",
        "city": "Mildura",
        "longitude": "142.084548",
        "latitude": "-34.230834",
        "train_station": false,
        "bus_station": false,
        "active": true,
        "timezone": "Australia/Sydney"
    }
},
{
    "model": "resources.airport",
    "pk": 193,
    "fields": {
        "code": "MGT",
        "name": "",
        "parent_code": "",
        "country": "AU",
        "city": "Milingimbi",
        "longitude": "134.893518",
        "latitude": "-12.093703",
        "train_station": false,
        "bus_station": false,
        "active": true,
        "timezone": "Australia/Darwin"
    }
},
{
    "model": "resources.airport",
    "pk": 194,
    "fields": {
        "code": "MJK",
        "name": "",
        "parent_code": "",
        "country": "AU",
        "city": "Monkey Mia",
        "longitude": "113.576952",
        "latitude": "-25.888158",
        "train_station": false,
        "bus_station": false,
        "active": true,
        "timezone": "Australia/Perth"
    }
},
{
    "model": "resources.airport",
    "pk": 195,
    "fields": {
        "code": "MOV",
        "name": "",
        "parent_code": "",
        "country": "AU",
        "city": "Moranbah",
        "longitude": "148.074417",
        "latitude": "-22.06057",
        "train_station": false,
        "bus_station": false,
        "active": true,
        "timezone": "Australia/Brisbane"
    }
},
{
    "model": "resources.airport",
    "pk": 196,
    "fields": {
        "code": "MRZ",
        "name": "",
        "parent_code": "",
        "country": "AU",
        "city": "Moree",
        "longitude": "149.850186",
        "latitude": "-29.496345",
        "train_station": false,
        "bus_station": false,
        "active": true,
        "timezone": "Australia/Sydney"
    }
},
{
    "model": "resources.airport",
    "pk": 197,
    "fields": {
        "code": "ONG",
        "name": "",
        "parent_code": "",
        "country": "AU",
        "city": "Mornington",
        "longitude": "139.170047",
        "latitude": "-16.662558",
        "train_station": false,
        "bus_station": false,
        "active": true,
        "timezone": "Australia/Brisbane"
    }
},
{
    "model": "resources.airport",
    "pk": 198,
    "fields": {
        "code": "MYA",
        "name": "",
        "parent_code": "",
        "country": "AU",
        "city": "Moruya",
        "longitude": "150.147172",
        "latitude": "-35.90251",
        "train_station": false,
        "bus_station": false,
        "active": true,
        "timezone": "Australia/Sydney"
    }
},
{
    "model": "resources.airport",
    "pk": 199,
    "fields": {
        "code": "MGB",
        "name": "",
        "parent_code": "",
        "country": "AU",
        "city": "Mount Gambier",
        "longitude": "140.782715",
        "latitude": "-37.744072",
        "train_station": false,
        "bus_station": false,
        "active": true,
        "timezone": "Australia/Adelaide"
    }
},
{
    "model": "resources.airport",
    "pk": 200,
    "fields": {
        "code": "MHU",
        "name": "",
        "parent_code": "",
        "country": "AU",
        "city": "Mount Hotham",
        "longitude": "147.183333",
        "latitude": "-36.966667",
        "train_station": false,
        "bus_station": false,
        "active": true,
        "timezone": "Australia/Sydney"
    }
},
{
    "model": "resources.airport",
    "pk": 201,
    "fields": {
        "code": "ISA",
        "name": "",
        "parent_code": "",
        "country": "AU",
        "city": "Mount Isa",
        "longitude": "139.491792",
        "latitude": "-20.667637",
        "train_station": false,
        "bus_station": false,
        "active": true,
        "timezone": "Australia/Brisbane"
    }
},
{
    "model": "resources.airport",
    "pk": 202,
    "fields": {
        "code": "WME",
        "name": "",
        "parent_code": "",
        "country": "AU",
        "city": "Mount Keith",
        "longitude": "120.549444",
        "latitude": "-27.287222",
        "train_station": false,
        "bus_station": false,
        "active": true,
        "timezone": "Australia/Perth"
    }
},
{
    "model": "resources.airport",
    "pk": 203,
    "fields": {
        "code": "MMG",
        "name": "",
        "parent_code": "",
        "country": "AU",
        "city": "Mount Magnet",
        "longitude": "117.85",
        "latitude": "-28.083333",
        "train_station": false,
        "bus_station": false,
        "active": true,
        "timezone": "Australia/Perth"
    }
},
{
    "model": "resources.airport",
    "pk": 204,
    "fields": {
        "code": "DGE",
        "name": "",
        "parent_code": "",
        "country": "AU",
        "city": "Mudgee",
        "longitude": "149.616667",
        "latitude": "-32.566667",
        "train_station": false,
        "bus_station": false,
        "active": true,
        "timezone": "Australia/Sydney"
    }
},
{
    "model": "resources.airport",
    "pk": 205,
    "fields": {
        "code": "MYI",
        "name": "",
        "parent_code": "",
        "country": "AU",
        "city": "Murray Island",
        "longitude": "144.064969",
        "latitude": "-9.920066",
        "train_station": false,
        "bus_station": false,
        "active": true,
        "timezone": "Australia/Brisbane"
    }
},
{
    "model": "resources.airport",
    "pk": 206,
    "fields": {
        "code": "NAA",
        "name": "",
        "parent_code": "",
        "country": "AU",
        "city": "Narrabri",
        "longitude": "149.82912",
        "latitude": "-30.31829",
        "train_station": false,
        "bus_station": false,
        "active": true,
        "timezone": "Australia/Sydney"
    }
},
{
    "model": "resources.airport",
    "pk": 207,
    "fields": {
        "code": "BEO",
        "name": "Belmont",
        "parent_code": "",
        "country": "AU",
        "city": "Newcastle",
        "longitude": "151.666667",
        "latitude": "-33.033333",
        "train_station": false,
        "bus_station": false,
        "active": true,
        "timezone": "Australia/Sydney"
    }
},
{
    "model": "resources.airport",
    "pk": 208,
    "fields": {
        "code": "NTL",
        "name": "",
        "parent_code": "",
        "country": "AU",
        "city": "Newcastle",
        "longitude": "151.84005",
        "latitude": "-32.804594",
        "train_station": false,
        "bus_station": false,
        "active": true,
        "timezone": "Australia/Sydney"
    }
},
{
    "model": "resources.airport",
    "pk": 209,
    "fields": {
        "code": "ZNE",
        "name": "",
        "parent_code": "",
        "country": "AU",
        "city": "Newman",
        "longitude": "119.801372",
        "latitude": "-23.416517",
        "train_station": false,
        "bus_station": false,
        "active": true,
        "timezone": "Australia/Perth"
    }
},
{
    "model": "resources.airport",
    "pk": 210,
    "fields": {
        "code": "RPM",
        "name": "",
        "parent_code": "",
        "country": "AU",
        "city": "Ngukurr",
        "longitude": "134.0",
        "latitude": "-14.933333",
        "train_station": false,
        "bus_station": false,
        "active": true,
        "timezone": "Australia/Darwin"
    }
},
{
    "model": "resources.airport",
    "pk": 211,
    "fields": {
        "code": "NTN",
        "name": "",
        "parent_code": "",
        "country": "AU",
        "city": "Normanton",
        "longitude": "141.073071",
        "latitude": "-17.685399",
        "train_station": false,
        "bus_station": false,
        "active": true,
        "timezone": "Australia/Brisbane"
    }
},
{
    "model": "resources.airport",
    "pk": 212,
    "fields": {
        "code": "NUB",
        "name": "",
        "parent_code": "",
        "country": "AU",
        "city": "Numbulwar",
        "longitude": "135.716389",
        "latitude": "-14.271667",
        "train_station": false,
        "bus_station": false,
        "active": true,
        "timezone": "Australia/Darwin"
    }
},
{
    "model": "resources.airport",
    "pk": 213,
    "fields": {
        "code": "NYN",
        "name": "",
        "parent_code": "",
        "country": "AU",
        "city": "Nyngan",
        "longitude": "147.183333",
        "latitude": "-31.566667",
        "train_station": false,
        "bus_station": false,
        "active": true,
        "timezone": "Australia/Sydney"
    }
},
{
    "model": "resources.airport",
    "pk": 214,
    "fields": {
        "code": "OLP",
        "name": "",
        "parent_code": "",
        "country": "AU",
        "city": "Olympic Dam",
        "longitude": "136.884111",
        "latitude": "-30.483898",
        "train_station": false,
        "bus_station": false,
        "active": true,
        "timezone": "Australia/Adelaide"
    }
},
{
    "model": "resources.airport",
    "pk": 215,
    "fields": {
        "code": "OAG",
        "name": "",
        "parent_code": "",
        "country": "AU",
        "city": "Orange",
        "longitude": "149.124473",
        "latitude": "-33.381601",
        "train_station": false,
        "bus_station": false,
        "active": true,
        "timezone": "Australia/Sydney"
    }
},
{
    "model": "resources.airport",
    "pk": 216,
    "fields": {
        "code": "PBO",
        "name": "",
        "parent_code": "",
        "country": "AU",
        "city": "Paraburdoo",
        "longitude": "117.748002",
        "latitude": "-23.173908",
        "train_station": false,
        "bus_station": false,
        "active": true,
        "timezone": "Australia/Perth"
    }
},
{
    "model": "resources.airport",
    "pk": 217,
    "fields": {
        "code": "PER",
        "name": "Perth Airport",
        "parent_code": "",
        "country": "AU",
        "city": "Perth",
        "longitude": "115.960236",
        "latitude": "-31.933604",
        "train_station": false,
        "bus_station": false,
        "active": true,
        "timezone": "Australia/Perth"
    }
},
{
    "model": "resources.airport",
    "pk": 218,
    "fields": {
        "code": "PUG",
        "name": "",
        "parent_code": "",
        "country": "AU",
        "city": "Port Augusta",
        "longitude": "137.766667",
        "latitude": "-32.5",
        "train_station": false,
        "bus_station": false,
        "active": true,
        "timezone": "Australia/Adelaide"
    }
},
{
    "model": "resources.airport",
    "pk": 219,
    "fields": {
        "code": "PHE",
        "name": "",
        "parent_code": "",
        "country": "AU",
        "city": "Port Headland",
        "longitude": "118.63164",
        "latitude": "-20.377945",
        "train_station": false,
        "bus_station": false,
        "active": true,
        "timezone": "Australia/Perth"
    }
},
{
    "model": "resources.airport",
    "pk": 220,
    "fields": {
        "code": "PLO",
        "name": "",
        "parent_code": "",
        "country": "AU",
        "city": "Port Lincoln",
        "longitude": "135.87454",
        "latitude": "-34.603331",
        "train_station": false,
        "bus_station": false,
        "active": true,
        "timezone": "Australia/Adelaide"
    }
},
{
    "model": "resources.airport",
    "pk": 221,
    "fields": {
        "code": "PQQ",
        "name": "",
        "parent_code": "",
        "country": "AU",
        "city": "Port Macquarie",
        "longitude": "152.867233",
        "latitude": "-31.431402",
        "train_station": false,
        "bus_station": false,
        "active": true,
        "timezone": "Australia/Sydney"
    }
},
{
    "model": "resources.airport",
    "pk": 222,
    "fields": {
        "code": "PTJ",
        "name": "",
        "parent_code": "",
        "country": "AU",
        "city": "Portland",
        "longitude": "141.625",
        "latitude": "-38.384167",
        "train_station": false,
        "bus_station": false,
        "active": true,
        "timezone": "Australia/Sydney"
    }
},
{
    "model": "resources.airport",
    "pk": 223,
    "fields": {
        "code": "PPP",
        "name": "Whitsunday Coast Airport",
        "parent_code": "",
        "country": "AU",
        "city": "Proserpine",
        "longitude": "148.551939",
        "latitude": "-20.488923",
        "train_station": false,
        "bus_station": false,
        "active": true,
        "timezone": "Australia/Brisbane"
    }
},
{
    "model": "resources.airport",
    "pk": 224,
    "fields": {
        "code": "ULP",
        "name": "",
        "parent_code": "",
        "country": "AU",
        "city": "Quilpie",
        "longitude": "144.3",
        "latitude": "-26.633333",
        "train_station": false,
        "bus_station": false,
        "active": true,
        "timezone": "Australia/Brisbane"
    }
},
{
    "model": "resources.airport",
    "pk": 225,
    "fields": {
        "code": "RAM",
        "name": "",
        "parent_code": "",
        "country": "AU",
        "city": "Ramingining",
        "longitude": "134.816667",
        "latitude": "-12.0",
        "train_station": false,
        "bus_station": false,
        "active": true,
        "timezone": "Australia/Darwin"
    }
},
{
    "model": "resources.airport",
    "pk": 226,
    "fields": {
        "code": "RCM",
        "name": "",
        "parent_code": "",
        "country": "AU",
        "city": "Richmond",
        "longitude": "143.116667",
        "latitude": "-20.703889",
        "train_station": false,
        "bus_station": false,
        "active": true,
        "timezone": "Australia/Brisbane"
    }
},
{
    "model": "resources.airport",
    "pk": 227,
    "fields": {
        "code": "ROK",
        "name": "",
        "parent_code": "",
        "country": "AU",
        "city": "Rockhampton",
        "longitude": "150.478415",
        "latitude": "-23.377993",
        "train_station": false,
        "bus_station": false,
        "active": true,
        "timezone": "Australia/Brisbane"
    }
},
{
    "model": "resources.airport",
    "pk": 228,
    "fields": {
        "code": "RMA",
        "name": "",
        "parent_code": "",
        "country": "AU",
        "city": "Roma",
        "longitude": "148.779431",
        "latitude": "-26.543553",
        "train_station": false,
        "bus_station": false,
        "active": true,
        "timezone": "Australia/Brisbane"
    }
},
{
    "model": "resources.airport",
    "pk": 229,
    "fields": {
        "code": "JHQ",
        "name": "",
        "parent_code": "",
        "country": "AU",
        "city": "Shute Harbor",
        "longitude": "147.0",
        "latitude": "-22.0",
        "train_station": false,
        "bus_station": false,
        "active": true,
        "timezone": "Australia/Brisbane"
    }
},
{
    "model": "resources.airport",
    "pk": 230,
    "fields": {
        "code": "SOI",
        "name": "",
        "parent_code": "",
        "country": "AU",
        "city": "South Molle Island",
        "longitude": "148.583333",
        "latitude": "-20.75",
        "train_station": false,
        "bus_station": false,
        "active": true,
        "timezone": "Australia/Brisbane"
    }
},
{
    "model": "resources.airport",
    "pk": 231,
    "fields": {
        "code": "SYU",
        "name": "",
        "parent_code": "",
        "country": "AU",
        "city": "Sue Island",
        "longitude": "142.816667",
        "latitude": "-10.208333",
        "train_station": false,
        "bus_station": false,
        "active": true,
        "timezone": "Australia/Brisbane"
    }
},
{
    "model": "resources.airport",
    "pk": 232,
    "fields": {
        "code": "MCY",
        "name": "",
        "parent_code": "",
        "country": "AU",
        "city": "Sunshine Coast",
        "longitude": "153.088208",
        "latitude": "-26.60538",
        "train_station": false,
        "bus_station": false,
        "active": true,
        "timezone": "Australia/Brisbane"
    }
},
{
    "model": "resources.airport",
    "pk": 233,
    "fields": {
        "code": "SYD",
        "name": "Kingsford Smith Int. Airport",
        "parent_code": "",
        "country": "AU",
        "city": "Sydney",
        "longitude": "151.179898",
        "latitude": "-33.932922",
        "train_station": false,
        "bus_station": false,
        "active": true,
        "timezone": "Australia/Sydney"
    }
},
{
    "model": "resources.airport",
    "pk": 234,
    "fields": {
        "code": "TMW",
        "name": "",
        "parent_code": "",
        "country": "AU",
        "city": "Tamworth",
        "longitude": "150.848496",
        "latitude": "-31.0845",
        "train_station": false,
        "bus_station": false,
        "active": true,
        "timezone": "Australia/Sydney"
    }
},
{
    "model": "resources.airport",
    "pk": 235,
    "fields": {
        "code": "TRO",
        "name": "",
        "parent_code": "",
        "country": "AU",
        "city": "Taree",
        "longitude": "152.508964",
        "latitude": "-31.890273",
        "train_station": false,
        "bus_station": false,
        "active": true,
        "timezone": "Australia/Sydney"
    }
},
{
    "model": "resources.airport",
    "pk": 236,
    "fields": {
        "code": "TCA",
        "name": "",
        "parent_code": "",
        "country": "AU",
        "city": "Tennant Creek",
        "longitude": "134.180833",
        "latitude": "-19.638056",
        "train_station": false,
        "bus_station": false,
        "active": true,
        "timezone": "Australia/Darwin"
    }
},
{
    "model": "resources.airport",
    "pk": 237,
    "fields": {
        "code": "THG",
        "name": "",
        "parent_code": "",
        "country": "AU",
        "city": "Thangool",
        "longitude": "150.566667",
        "latitude": "-24.5",
        "train_station": false,
        "bus_station": false,
        "active": true,
        "timezone": "Australia/Brisbane"
    }
},
{
    "model": "resources.airport",
    "pk": 238,
    "fields": {
        "code": "XTG",
        "name": "",
        "parent_code": "",
        "country": "AU",
        "city": "Thargomindah",
        "longitude": "143.766667",
        "latitude": "-27.966667",
        "train_station": false,
        "bus_station": false,
        "active": true,
        "timezone": "Australia/Brisbane"
    }
},
{
    "model": "resources.airport",
    "pk": 239,
    "fields": {
        "code": "TIS",
        "name": "",
        "parent_code": "",
        "country": "AU",
        "city": "Thursday Island",
        "longitude": "142.05",
        "latitude": "-10.5",
        "train_station": false,
        "bus_station": false,
        "active": true,
        "timezone": "Australia/Brisbane"
    }
},
{
    "model": "resources.airport",
    "pk": 240,
    "fields": {
        "code": "TPR",
        "name": "",
        "parent_code": "",
        "country": "AU",
        "city": "Tom Price",
        "longitude": "117.666667",
        "latitude": "-22.75",
        "train_station": false,
        "bus_station": false,
        "active": true,
        "timezone": "Australia/Perth"
    }
},
{
    "model": "resources.airport",
    "pk": 241,
    "fields": {
        "code": "TWB",
        "name": "",
        "parent_code": "",
        "country": "AU",
        "city": "Toowoomba",
        "longitude": "151.913889",
        "latitude": "-27.542222",
        "train_station": false,
        "bus_station": false,
        "active": true,
        "timezone": "Australia/Brisbane"
    }
},
{
    "model": "resources.airport",
    "pk": 242,
    "fields": {
        "code": "TSV",
        "name": "Townsville Airport",
        "parent_code": "",
        "country": "AU",
        "city": "Townsville",
        "longitude": "146.770793",
        "latitude": "-19.256506",
        "train_station": false,
        "bus_station": false,
        "active": true,
        "timezone": "Australia/Brisbane"
    }
},
{
    "model": "resources.airport",
    "pk": 243,
    "fields": {
        "code": "TGN",
        "name": "",
        "parent_code": "",
        "country": "AU",
        "city": "Traralgon",
        "longitude": "146.566667",
        "latitude": "-38.2",
        "train_station": false,
        "bus_station": false,
        "active": true,
        "timezone": "Australia/Sydney"
    }
},
{
    "model": "resources.airport",
    "pk": 244,
    "fields": {
        "code": "USL",
        "name": "",
        "parent_code": "",
        "country": "AU",
        "city": "Useless Loop",
        "longitude": "113.116667",
        "latitude": "-25.966667",
        "train_station": false,
        "bus_station": false,
        "active": true,
        "timezone": "Australia/Perth"
    }
},
{
    "model": "resources.airport",
    "pk": 245,
    "fields": {
        "code": "VCD",
        "name": "",
        "parent_code": "",
        "country": "AU",
        "city": "Victoria River Downs",
        "longitude": "131.0",
        "latitude": "-16.4",
        "train_station": false,
        "bus_station": false,
        "active": true,
        "timezone": "Australia/Darwin"
    }
},
{
    "model": "resources.airport",
    "pk": 246,
    "fields": {
        "code": "WGA",
        "name": "",
        "parent_code": "",
        "country": "AU",
        "city": "Wagga Wagga",
        "longitude": "147.466265",
        "latitude": "-35.159918",
        "train_station": false,
        "bus_station": false,
        "active": true,
        "timezone": "Australia/Sydney"
    }
},
{
    "model": "resources.airport",
    "pk": 247,
    "fields": {
        "code": "WGE",
        "name": "",
        "parent_code": "",
        "country": "AU",
        "city": "Walgett",
        "longitude": "148.133333",
        "latitude": "-30.033333",
        "train_station": false,
        "bus_station": false,
        "active": true,
        "timezone": "Australia/Sydney"
    }
},
{
    "model": "resources.airport",
    "pk": 248,
    "fields": {
        "code": "WEI",
        "name": "",
        "parent_code": "",
        "country": "AU",
        "city": "Weipa",
        "longitude": "141.924697",
        "latitude": "-12.681317",
        "train_station": false,
        "bus_station": false,
        "active": true,
        "timezone": "Australia/Brisbane"
    }
},
{
    "model": "resources.airport",
    "pk": 249,
    "fields": {
        "code": "WYA",
        "name": "",
        "parent_code": "",
        "country": "AU",
        "city": "Whyalla",
        "longitude": "137.521971",
        "latitude": "-33.052411",
        "train_station": false,
        "bus_station": false,
        "active": true,
        "timezone": "Australia/Adelaide"
    }
},
{
    "model": "resources.airport",
    "pk": 250,
    "fields": {
        "code": "WUN",
        "name": "",
        "parent_code": "",
        "country": "AU",
        "city": "Wiluna",
        "longitude": "120.216667",
        "latitude": "-26.633333",
        "train_station": false,
        "bus_station": false,
        "active": true,
        "timezone": "Australia/Perth"
    }
},
{
    "model": "resources.airport",
    "pk": 251,
    "fields": {
        "code": "WNR",
        "name": "",
        "parent_code": "",
        "country": "AU",
        "city": "Windarra",
        "longitude": "142.666667",
        "latitude": "-25.416667",
        "train_station": false,
        "bus_station": false,
        "active": true,
        "timezone": "Australia/Brisbane"
    }
},